[
  {
    "name": "Nate and Insa Brewer",
    "lat": 48.210033,
    "lng": 16.363449,
    "url": "https://www.cherryhillsfamily.org/missions/global/profile/nate-and-insa-brewer"
  },
  {
    "name": "The James Project",
    "lat": 39.7896428394095,
    "lng": -89.70436802808422,
    "url": "https://cherryhillsfamily.org/missions/local/profile/the-james-project"
  },
  {
    "name": "Enos Elementary School",
    "lat": 39.81371275227684,
    "lng": -89.66123412161984,
    "url": "https://cherryhillsfamily.org/missions/local/profile/enos-elementary-school"
  },
  {
    "name": "First Step Womens Center",
    "lat": 39.81614343832645,
    "lng": -89.64804609100652,
    "url": "https://cherryhillsfamily.org/missions/local/profile/first-step-women-s-center"
  },
  {
    "name": "Washington Street Mission",
    "lat": 39.80539890563301,
    "lng": -89.65046838235627,
    "url": "https://cherryhillsfamily.org/missions/local/profile/washington-street-mission"
  },
  {
    "name": "St. Johns Breadline",
    "lat": 39.8060442514894,
    "lng": -89.650741810007,
    "url": "https://cherryhillsfamily.org/missions/local/profile/st-john-s-breadline"
  },
  {
    "name": "Contact Ministries",
    "lat": 39.800041674513665,
    "lng":  -89.64072212591212,
    "url": "https://cherryhillsfamily.org/missions/local/profile/contact-ministries"
  },
  {
    "name": "Powerlight Fest",
    "lat": 39.78186784059419,
    "lng":  -89.64999534227154,
    "url": "https://cherryhillsfamily.org/missions/local/profile/powerlight-fest"
  },
  {
    "name": "Fellowship of Christian Athletes",
    "lat": 39.72721028580847,
    "lng":  -89.6431716193549,
    "url": "https://cherryhillsfamily.org/missions/local/profile/fellowship-of-christian-athletes"
  },
  {
    "name": "Refuge Ranch",
    "lat": 39.6637119935077,
    "lng":  -89.48772737421496,
    "url": "https://cherryhillsfamily.org/missions/local/profile/refuge-ranch"
  },
  {
    "name": "Matt and Nadia Lohse",
    "lat": 41.839973864619175,
    "lng":  -87.62502145653507,
    "url": "https://cherryhillsfamily.org/missions/local/profile/matt-and-nadia-lohse"
  },
  {
    "name": "TJ & Emily Lemons",
    "lat": 40.488271457701906, 
    "lng":  -88.96748973545199,
    "url": "https://cherryhillsfamily.org/missions/local/profile/tj-and-emily-lemons"
  },
  {
    "name": "Bryan & Jonell McKenzie",
    "lat": 40.62884600140587,
    "lng":  -89.40329365428762,
    "url": "https://cherryhillsfamily.org/missions/local/profile/bryan-and-jonell-mckenzie"
  }
]